City_ID,City,Lat,Lng,Max Temp,Humidity,Cloudiness,Wind Speed,Country,Date
0,edinburgh of the seven seas,-37.0676,-12.3116,12.32000000000005,62,39,5.72,SH,1717126972
1,port-aux-francais,-49.35,70.2167,2.7200000000000273,82,99,10.1,TF,1717126972
2,wajir,1.7471,40.0573,23.980000000000018,78,0,1.54,KE,1717126973
3,afaahiti,-17.75,-149.2833,27.810000000000002,77,18,3.58,PF,1717126973
4,geraldton,-28.7667,114.6,22.230000000000018,40,0,7.2,AU,1717126973
5,ribeira grande,38.5167,-28.7,18.760000000000048,78,60,5.36,PT,1717126973
6,invercargill,-46.4,168.35,17.230000000000018,65,100,4.02,NZ,1717126973
7,guarapari,-20.6667,-40.4975,19.810000000000002,80,88,4.88,BR,1717126973
8,adamstown,-25.066,-130.1015,21.24000000000001,70,91,8.99,PN,1717126973
9,puerto baquerizo moreno,-0.9,-89.6,21.720000000000027,88,87,4.35,EC,1717126932
10,terenos,-20.4422,-54.8603,19.840000000000032,52,0,4.12,BR,1717126974
11,conde,-7.2597,-34.9075,23.700000000000045,88,0,3.09,BR,1717126974
12,enewetak,11.3474,162.3373,28.220000000000027,73,100,5.64,MH,1717126974
13,albany,42.6001,-73.9662,12.54000000000002,78,74,0.45,US,1717126870
14,san nicolas,18.1725,120.5953,32.950000000000045,62,40,3.6,PH,1717126974
15,maintirano,-18.0667,44.0167,21.78000000000003,75,0,3.54,MG,1717126974
16,grytviken,-54.2811,-36.5092,-7.759999999999991,78,17,5.63,GS,1717126974
17,manali,13.1667,80.2667,36.73000000000002,58,8,0.45,IN,1717126974
18,stephenville,32.2207,-98.2023,20.140000000000043,88,100,0.0,US,1717126975
19,blackmans bay,-43.0167,147.3167,13.07000000000005,70,49,9.76,AU,1717126975
20,thompson,55.7435,-97.8558,15.090000000000032,88,75,3.09,CA,1717126975
21,avarua,-21.2078,-159.775,22.03000000000003,100,75,3.09,CK,1717126975
22,kone,-21.0595,164.8658,24.390000000000043,48,63,5.52,NC,1717126975
23,st. john's,47.5649,-52.7093,15.080000000000041,82,75,2.57,CA,1717126885
24,opuwo,-18.0607,13.84,11.870000000000005,66,0,0.3,NA,1717126975
25,mil'kovo,55.6078,37.7956,20.590000000000032,82,44,1.63,RU,1717126975
26,ugoofaaru,5.6667,73.0,28.80000000000001,83,94,7.43,MV,1717126976
27,douglas,41.3,-96.167,18.30000000000001,92,0,2.57,US,1717126976
28,puerto ayora,-0.7393,-90.3518,22.53000000000003,99,79,3.57,EC,1717126976
29,spring creek,40.7266,-115.5859,17.83000000000004,40,87,3.18,US,1717126976
30,malabrigo,-29.3464,-59.9696,10.900000000000034,93,0,3.4,AR,1717126976
31,campbell river,50.0163,-125.2446,16.210000000000036,44,75,2.06,CA,1717126976
32,fort mcmurray,56.7268,-111.381,10.770000000000039,93,40,4.63,CA,1717126903
33,dame-marie,18.5667,-74.4167,26.83000000000004,85,95,2.76,HT,1717126976
34,jamestown,42.097,-79.2353,10.400000000000034,73,0,2.06,US,1717126977
35,isafjordur,66.0755,-23.124,4.140000000000043,65,0,7.27,IS,1717126977
36,waitangi,-43.9535,-176.5597,9.900000000000034,79,12,2.24,NZ,1717126977
37,praia da vitoria,38.7333,-27.0667,18.75,82,40,4.84,PT,1717126977
38,aykhal,66.0,111.5,10.54000000000002,29,43,6.43,RU,1717126977
39,plopsoru,44.7833,23.35,14.82000000000005,88,30,1.05,RO,1717126977
40,marsh harbour,26.5412,-77.0636,27.110000000000014,62,29,3.43,BS,1717126977
41,perbaungan,3.5679,98.956,31.060000000000002,67,93,0.74,ID,1717126977
42,hermanus,-34.4187,19.2345,12.03000000000003,75,42,2.06,ZA,1717126978
43,ponta delgada,37.7333,-25.6667,19.400000000000034,77,20,3.6,PT,1717126978
44,daru,-9.0763,143.2092,27.160000000000025,86,86,7.35,PG,1717126978
45,udachny,66.4167,112.4,9.689999999999998,31,5,6.06,RU,1717126978
46,pakse,15.1167,105.7833,27.08000000000004,89,75,4.12,LA,1717126979
47,kwangmyong,37.4772,126.8664,25.83000000000004,49,20,4.12,KR,1717126979
48,santarem,-2.4431,-54.7083,24.07000000000005,100,0,1.03,BR,1717126792
49,paracale,14.2804,122.7881,31.220000000000027,67,100,3.29,PH,1717126979
50,zhelezinka,53.54,75.3072,9.689999999999998,47,24,2.53,KZ,1717126979
51,ingeniero jacobacci,-41.3427,-69.5448,5.5,78,100,3.68,AR,1717126979
52,hawaiian paradise park,19.5933,-154.9731,22.730000000000018,95,100,2.06,US,1717126980
53,eenhana,-17.4667,16.3333,9.689999999999998,46,0,3.1,NA,1717126980
54,tiksi,71.6872,128.8694,8.650000000000034,58,57,1.82,RU,1717126980
55,trzebinia,50.1593,19.4697,14.900000000000034,91,28,1.49,PL,1717126980
56,aleg,17.0481,-13.9209,25.150000000000034,42,23,5.94,MR,1717126980
57,kerikeri,-35.2268,173.9474,21.060000000000002,62,0,1.79,NZ,1717126980
58,maardu,59.4767,25.025,18.0,72,0,0.51,EE,1717126980
59,tolanaro,-25.0319,46.9987,21.04000000000002,83,20,8.23,MG,1717126980
60,ilulissat,69.2167,-51.1,-0.9899999999999523,69,9,3.09,GL,1717126981
61,oranjemund,-28.55,16.4333,11.840000000000032,85,23,3.45,NA,1717126981
62,susuman,62.7833,148.1667,10.550000000000011,25,40,3.13,RU,1717126981
63,pisco,-13.7,-76.2167,17.03000000000003,82,100,2.06,PE,1717126981
64,ushuaia,-54.8,-68.3,-0.18999999999999773,74,0,3.09,AR,1717126875
65,wailua homesteads,22.0669,-159.378,28.24000000000001,77,20,7.72,US,1717126981
66,papatowai,-46.5619,169.4708,15.180000000000007,64,100,4.71,NZ,1717126981
67,hasaki,35.7333,140.8333,19.220000000000027,95,100,12.1,JP,1717126981
68,iqaluit,63.7506,-68.5145,0.8500000000000227,74,100,3.6,CA,1717126982
69,al jawf,29.5,38.75,20.07000000000005,46,0,5.13,SA,1717126982
70,taoudenni,22.6783,-3.9836,29.74000000000001,13,5,4.2,ML,1717126982
71,prince rupert,54.3161,-130.3201,12.050000000000011,82,100,7.72,CA,1717126982
72,esmeralda,21.8525,-78.1169,24.83000000000004,91,100,1.03,CU,1717126982
73,sitka,57.0531,-135.33,10.939999999999998,76,100,3.09,US,1717126982
74,valley city,46.9233,-98.0032,16.29000000000002,59,0,4.63,US,1717126905
75,queenstown,-31.8976,26.8753,8.410000000000025,90,79,1.21,ZA,1717126982
76,arraial do cabo,-22.9661,-42.0278,21.439999999999998,77,89,8.69,BR,1717126983
77,vorkuta,67.5,64.0,-2.159999999999968,87,100,6.71,RU,1717126983
78,ghorawal,24.7667,82.7833,36.97000000000003,23,95,2.4,IN,1717126983
79,east london,-33.0153,27.9116,15.520000000000039,63,0,4.12,ZA,1717126983
80,nar'yan-mar,67.6713,53.087,-2.159999999999968,87,92,5.81,RU,1717126983
81,anadyr,64.75,177.4833,8.28000000000003,61,20,2.0,RU,1717126983
82,sisimiut,66.9395,-53.6735,-3.609999999999957,81,18,3.31,GL,1717126983
83,champerico,14.3,-91.9167,29.439999999999998,73,100,0.89,GT,1717126983
84,iskateley,67.6803,53.1512,-2.2099999999999795,87,93,5.81,RU,1717126983
85,nuuk,64.1835,-51.7216,1.3400000000000318,75,13,5.14,GL,1717126920
86,kadipur,26.1667,82.3833,42.99000000000001,13,68,2.86,IN,1717126984
87,nicoya,10.1483,-85.452,25.010000000000048,91,100,0.67,CR,1717126984
88,ancud,-41.8697,-73.8203,8.010000000000048,82,100,2.54,CL,1717126984
89,guerrero negro,27.9769,-114.0611,15.78000000000003,85,23,7.51,MX,1717126984
90,constantia,44.1833,28.65,14.28000000000003,83,7,2.6,RO,1717126808
91,whakatane,-37.9585,176.9854,19.170000000000016,70,3,3.13,NZ,1717126984
92,chongju,39.6933,125.2103,18.82000000000005,74,90,4.06,KP,1717126985
93,new norfolk,-42.7826,147.0587,13.720000000000027,82,88,6.99,AU,1717126985
94,ceeldheer,3.8488,47.1806,25.930000000000007,84,81,7.61,SO,1717126985
95,nouadhibou,20.931,-17.0347,18.99000000000001,88,0,4.12,MR,1717126985
96,fernie,49.5,-115.0687,12.050000000000011,69,66,1.18,CA,1717126985
97,kodinsk,58.6881,99.1844,9.129999999999995,64,100,3.07,RU,1717126985
98,san antonio de pale,-1.4014,5.6325,26.850000000000023,74,100,5.06,GQ,1717126985
99,fortuna,40.5982,-124.1573,14.189999999999998,79,0,4.12,US,1717126985
100,atafu village,-8.5421,-172.5159,29.370000000000005,75,46,5.75,TK,1717126986
101,margaret river,-33.95,115.0667,19.060000000000002,65,86,7.69,AU,1717126986
102,port mathurin,-19.6833,63.4167,24.52000000000004,78,86,12.27,MU,1717126986
103,carnarvon,-24.8667,113.6333,23.05000000000001,24,0,3.12,AU,1717126986
104,lata,40.1629,-8.3327,15.600000000000023,78,59,4.05,PT,1717126986
105,tual,-5.6667,132.75,28.0,79,7,3.43,ID,1717126986
106,bilibino,68.0546,166.4372,5.170000000000016,54,48,5.54,RU,1717126986
107,bredasdorp,-34.5322,20.0403,9.25,86,20,0.32,ZA,1717126986
108,coquimbo,-29.9533,-71.3436,11.850000000000023,100,100,2.57,CL,1717126987
109,uturoa,-16.7333,-151.4333,27.120000000000005,80,29,4.17,PF,1717126987
110,olonkinbyen,70.9221,-8.7187,0.29000000000002046,80,93,6.71,SJ,1717126987
111,cam ranh,11.9214,109.1591,34.98000000000002,46,0,5.66,VN,1717126987
112,altamira,-3.2033,-52.2064,23.140000000000043,98,100,0.76,BR,1717126597
113,usinsk,65.9939,57.5281,0.040000000000020464,64,100,7.6,RU,1717126987
114,west island,-12.1568,96.8225,28.99000000000001,74,40,5.66,CC,1717126987
115,fort st. john,56.2499,-120.8529,11.939999999999998,40,75,8.23,CA,1717126987
116,trondheim,63.4305,10.3951,14.03000000000003,88,95,0.45,NO,1717126988
117,luderitz,-26.6481,15.1594,12.57000000000005,88,1,5.79,NA,1717126988
118,puerto natales,-51.7236,-72.4875,-1.17999999999995,93,86,1.17,CL,1717126988
119,crane,31.3974,-102.3501,28.939999999999998,54,0,8.88,US,1717126988
120,newman,37.3138,-121.0208,28.99000000000001,50,11,0.45,US,1717126988
121,nagqu,31.5,92.0,11.82000000000005,45,88,5.34,CN,1717126988
122,beira,-19.8436,34.8389,19.05000000000001,82,20,1.54,MZ,1717126989
123,homer,59.6425,-151.5483,11.939999999999998,57,100,0.0,US,1717126989
124,kovernino,57.1253,43.8142,16.120000000000005,92,100,2.27,RU,1717126989
125,gadzhiyevo,69.2551,33.3362,15.990000000000009,69,55,5.12,RU,1717126989
126,trairi,-3.2778,-39.2689,23.470000000000027,94,81,2.5,BR,1717126989
127,punta arenas,-53.15,-70.9167,-0.9399999999999977,100,0,3.09,CL,1717126989
128,es castell,39.8795,4.2854,17.379999999999995,88,20,7.2,ES,1717126989
129,arno,60.1167,18.6333,12.660000000000025,82,88,2.85,SE,1717126990
130,acapulco de juarez,16.8634,-99.8901,29.900000000000034,66,0,2.57,MX,1717126744
131,port elizabeth,-33.918,25.5701,14.5,82,20,6.17,ZA,1717126990
132,bull savanna,17.8868,-77.5902,25.379999999999995,81,100,3.42,JM,1717126990
133,hithadhoo,-0.6,73.0833,29.160000000000025,77,99,7.99,MV,1717126990
134,lebu,-37.6167,-73.65,9.300000000000011,93,100,2.63,CL,1717126990
135,christchurch,-43.5333,172.6333,15.740000000000009,62,87,4.12,NZ,1717126847
136,broken hill,-31.95,141.4333,16.410000000000025,48,4,5.07,AU,1717126990
137,kapa'a,22.0752,-159.319,28.99000000000001,77,20,7.72,US,1717126990
138,qaqortoq,60.7167,-46.0333,1.240000000000009,84,100,2.21,GL,1717126991
139,puerto armuelles,8.2833,-82.8667,24.99000000000001,87,100,0.86,PA,1717126991
140,waddan,29.1614,16.139,23.28000000000003,39,1,3.13,LY,1717126991
141,murfreesboro,35.8456,-86.3903,19.129999999999995,74,0,0.0,US,1717126973
142,tralee,52.2704,-9.7026,6.850000000000023,91,16,1.25,IE,1717126991
143,siracusa,37.0881,15.2792,19.879999999999995,55,19,1.26,IT,1717126991
144,stanley,54.868,-1.6985,10.010000000000048,84,40,7.2,GB,1717126991
145,nadym,65.5333,72.5167,-0.01999999999998181,86,100,6.99,RU,1717126991
146,bethel,41.3712,-73.414,14.720000000000027,77,0,0.0,US,1717126990
147,kavaratti,10.5669,72.642,28.53000000000003,80,60,7.55,IN,1717126992
148,namibe,-15.1961,12.1522,17.170000000000016,88,9,1.72,AO,1717126992
149,bratsk,56.1325,101.6142,17.27000000000004,53,68,3.11,RU,1717126992
150,georgetown,5.4112,100.3354,32.97000000000003,58,20,5.14,MY,1717126992
151,utrik,11.2278,169.8474,28.370000000000005,78,94,5.22,MH,1717126992
152,forster,-32.1667,152.5167,21.160000000000025,63,100,4.31,AU,1717126992
153,homestead meadows north,31.8496,-106.1729,31.710000000000036,5,0,4.12,US,1717126992
154,talnakh,69.4865,88.3972,-2.109999999999957,76,99,8.89,RU,1717126992
155,san julian,21.0167,-102.1667,23.590000000000032,35,100,2.57,MX,1717126993
156,happy valley-goose bay,53.3168,-60.3315,2.170000000000016,100,100,2.06,CA,1717126993
157,dudinka,69.4058,86.1778,-1.849999999999966,92,99,2.68,RU,1717126993
158,conduaga,8.862,117.4893,33.19,58,94,2.52,PH,1717126993
159,jiexiu,37.0244,111.9125,29.379999999999995,18,100,4.28,CN,1717126993
160,vila franca do campo,37.7167,-25.4333,19.230000000000018,99,20,3.37,PT,1717126993
161,yellowknife,62.456,-114.3525,9.29000000000002,67,75,9.77,CA,1717126993
162,fort bragg,35.139,-79.006,18.910000000000025,75,0,0.0,US,1717126994
163,loudi,27.7344,111.9944,26.680000000000007,59,49,0.83,CN,1717126994
164,mana,5.6592,-53.7767,26.180000000000007,86,95,2.57,GF,1717126994
165,lepsy,46.235,78.9456,24.879999999999995,20,1,4.49,KZ,1717126994
166,les anglais,18.3054,-74.2197,25.210000000000036,78,68,0.89,HT,1717126994
167,asau,46.4333,26.4,13.939999999999998,91,57,2.44,RO,1717126994
168,itoman,26.1247,127.6694,27.430000000000007,100,100,5.14,JP,1717126994
169,kasama,-10.2129,31.1808,11.04000000000002,85,52,1.96,ZM,1717126995
170,weno,7.4515,151.8468,31.970000000000027,70,75,5.14,FM,1717126995
171,port alfred,-33.5906,26.891,15.660000000000025,77,100,2.24,ZA,1717126995
172,novyy turtkul',41.55,61.0167,22.950000000000045,12,0,5.83,UZ,1717126995
173,kavieng,-2.5744,150.7967,29.53000000000003,68,99,3.16,PG,1717126995
174,cascais,38.6979,-9.4215,18.640000000000043,89,0,6.71,PT,1717126995
175,rancheria payau,7.8541,123.1598,32.420000000000016,55,24,2.34,PH,1717126995
176,masallatah,32.6167,14.0,18.560000000000002,65,6,2.94,LY,1717126996
177,rapid city,44.0805,-103.231,13.610000000000014,53,40,6.17,US,1717126923
178,vorgashor,67.5833,63.95,-2.329999999999984,87,100,4.95,RU,1717126996
179,posto fiscal rolim de moura,-13.0833,-62.2667,18.370000000000005,75,5,0.39,BR,1717126996
180,sabha,27.0377,14.4283,26.090000000000032,34,0,4.54,LY,1717126996
181,hamilton,39.1834,-84.5333,16.970000000000027,78,0,0.0,US,1717126787
182,chonchi,-42.6128,-73.8092,7.2900000000000205,90,100,1.08,CL,1717126996
183,tommot,58.9564,126.2925,25.700000000000045,34,32,2.22,RU,1717126996
184,casas grandes,30.3667,-107.95,22.07000000000005,8,4,5.76,MX,1717126996
185,kodiak,57.79,-152.4072,6.730000000000018,93,100,8.75,US,1717126889
186,bacalar,18.6667,-88.3833,27.430000000000007,78,1,3.5,MX,1717126997
187,tazovsky,67.4667,78.7,-2.3799999999999955,93,83,3.69,RU,1717126997
188,la rioja,42.25,-2.5,7.8799999999999955,88,83,1.76,ES,1717126997
189,lompoc,34.6391,-120.4579,15.080000000000041,81,100,4.12,US,1717126997
190,codrington,-38.2667,141.9667,14.180000000000007,57,17,9.97,AU,1717126997
191,kayyerkan,69.3786,87.7439,-2.0600000000000023,89,95,9.11,RU,1717126998
192,mont-dore,-22.2833,166.5833,26.99000000000001,99,50,7.57,NC,1717126998
193,cobourg,50.2667,10.9667,13.189999999999998,93,100,0.74,DE,1717126998
194,ghat,24.9647,10.1728,27.670000000000016,19,1,0.52,LY,1717126998
195,porto cristo,39.5395,3.333,17.760000000000048,83,94,9.32,ES,1717126998
196,tarfaya,27.9358,-12.9218,19.670000000000016,83,99,4.65,MA,1717126998
197,mejit,10.2753,170.8646,28.420000000000016,76,96,5.63,MH,1717126998
198,yekaterinoslavka,50.3734,129.1139,20.420000000000016,35,97,2.57,RU,1717126999
199,dingwall,57.5953,-4.4272,11.150000000000034,86,60,1.75,GB,1717126999
200,san patricio,28.017,-97.5169,29.360000000000014,86,12,8.18,US,1717126999
201,saipan,15.1355,145.701,30.390000000000043,66,20,6.17,MP,1717126999
202,brezina,33.0989,1.2608,26.03000000000003,24,97,3.16,DZ,1717126999
203,saint-pierre,-21.3393,55.4781,22.82000000000005,83,75,8.75,RE,1717126999
204,merizo village,13.2658,144.6691,30.850000000000023,81,100,4.92,GU,1717126999
205,sainte-rose,16.3324,-61.6979,27.02000000000004,83,0,1.54,GP,1717126999
206,lagoa,39.05,-27.9833,17.850000000000023,77,2,8.1,PT,1717127000
207,petropavlovsk-kamchatsky,53.0452,158.6483,11.330000000000041,61,75,5.0,RU,1717127000
208,sinabang,2.4803,96.3801,26.110000000000014,87,100,1.28,ID,1717127000
209,palmer,42.1584,-72.3287,13.230000000000018,78,20,0.0,US,1717127000
210,tubarjal,30.4999,38.216,19.99000000000001,42,0,7.39,SA,1717127000
211,macau,22.2006,113.5461,30.890000000000043,89,20,4.63,MO,1717126807
212,ballingry,56.1639,-3.3284,10.870000000000005,84,55,1.79,GB,1717127000
213,chardara,41.2547,67.9692,24.390000000000043,31,0,3.87,KZ,1717127000
214,zouerate,22.7187,-12.4521,20.52000000000004,53,0,4.17,MR,1717127001
215,hassi messaoud,31.6804,6.0729,23.920000000000016,31,0,2.57,DZ,1717127001
216,laguna,38.421,-121.4238,30.99000000000001,23,0,2.57,US,1717127001
217,malango,-2.9627,119.9001,29.650000000000034,52,11,2.2,ID,1717127001
218,mount pearl,47.5166,-52.7813,14.620000000000005,82,75,2.57,CA,1717127001
219,college,64.8569,-147.8028,17.180000000000007,55,75,4.12,US,1717127001
220,kitimat,54.0524,-128.6534,12.210000000000036,93,100,3.13,CA,1717127001
221,jawala mukhi,31.8833,76.3167,38.860000000000014,5,0,2.6,IN,1717127001
222,aswan,24.0934,32.907,26.610000000000014,21,0,3.09,EG,1717127002
223,el bayadh,33.6832,1.0193,22.0,28,92,1.8,DZ,1717127002
224,ust-nera,64.5667,143.2,18.430000000000007,19,8,4.39,RU,1717127002
225,polyarnyy,69.1989,33.4478,14.550000000000011,73,53,4.97,RU,1717127002
226,trevelin,-43.0858,-71.4639,2.7100000000000364,84,100,1.0,AR,1717127002
227,cabo san lucas,22.8909,-109.9124,32.610000000000014,12,0,8.23,MX,1717126899
228,labytnangi,66.6572,66.4183,-2.009999999999991,80,100,4.44,RU,1717127002
229,emerald,-23.5333,148.1667,25.75,48,9,4.57,AU,1717127002
230,guantanamo,20.1444,-75.2092,27.760000000000048,84,99,0.99,CU,1717127002
231,yudong,29.385,106.5194,27.5,61,89,1.27,CN,1717127003
232,longyearbyen,78.2186,15.6401,4.910000000000025,81,75,2.06,SJ,1717127003
233,portland,45.5234,-122.6762,18.32000000000005,55,20,5.14,US,1717126965
234,ambon,-3.6954,128.1814,29.08000000000004,79,40,2.57,ID,1717127003
235,witu,-2.3889,40.4382,25.170000000000016,86,100,5.36,KE,1717127003
236,aginskoye,51.1,114.53,21.840000000000032,23,13,5.21,RU,1717127003
237,belyy yar,53.6039,91.3903,13.939999999999998,67,0,1.0,RU,1717127004
238,minot air force base,48.4209,-101.3391,13.100000000000023,70,20,10.8,US,1717127004
239,klyuchi,52.2667,79.1667,10.010000000000048,43,1,5.11,RU,1717127004
240,concepcion,-36.827,-73.0498,8.890000000000043,100,20,1.54,CL,1717127004
241,nantucket,41.2835,-70.0995,13.060000000000002,94,100,6.17,US,1717127004
242,qamdo,31.1667,97.2333,16.30000000000001,38,59,3.03,CN,1717127004
243,jiazi,22.8779,116.067,26.120000000000005,92,97,4.04,CN,1717127004
244,revda,56.801,59.9303,11.770000000000039,38,5,1.77,RU,1717127004
245,kailua-kona,19.6406,-155.9956,27.980000000000018,84,100,5.66,US,1717127005
246,katangi,23.45,79.7833,32.59000000000003,23,32,5.34,IN,1717127005
247,kruisfontein,-34.0033,24.7314,13.270000000000039,85,70,4.76,ZA,1717127005
248,al khums,32.6486,14.2619,19.420000000000016,78,9,3.37,LY,1717127005
249,ghanzi,-21.5667,21.7833,11.850000000000023,38,0,4.13,BW,1717127005
250,alice springs,-23.7,133.8833,15.75,77,100,4.12,AU,1717127005
251,wellington,-41.2866,174.7756,16.660000000000025,73,81,5.66,NZ,1717126807
252,insar,53.8653,44.3738,19.75,63,18,2.02,RU,1717127005
253,syas'stroy,60.1367,32.5691,15.050000000000011,93,25,3.35,RU,1717127006
254,angaur state,6.906,134.13,29.32000000000005,79,21,6.08,PW,1717127006
255,mabaruma,8.2,-59.7833,24.590000000000032,93,99,1.07,GY,1717127006
256,port macquarie,-31.4333,152.9167,22.160000000000025,64,100,4.61,AU,1717127006
257,axim,4.8699,-2.2405,27.05000000000001,83,99,5.29,GH,1717127006
258,isangel,-19.55,169.2667,24.060000000000002,73,75,4.63,VU,1717127006
259,nemuro,43.3236,145.575,7.560000000000002,78,100,2.95,JP,1717127006
260,lae,-6.7221,146.9847,29.370000000000005,72,61,3.67,PG,1717127006
261,luorong,24.4058,109.6086,24.689999999999998,80,99,4.23,CN,1717127007
262,loiza,18.4313,-65.8802,29.150000000000034,84,20,2.06,PR,1717127007
263,duba,27.3513,35.6901,27.430000000000007,51,0,2.66,SA,1717127007
264,hwange,-18.3693,26.5019,13.300000000000011,68,0,0.94,ZW,1717127007
265,sydney mines,46.2367,-60.2177,10.700000000000045,92,100,3.09,CA,1717127007
266,gebeit,21.0667,36.3167,24.5,31,0,3.75,SD,1717127007
267,vadso,70.0744,29.7487,19.49000000000001,76,0,4.12,NO,1717127007
268,sihanoukville,10.6093,103.5296,29.970000000000027,79,40,4.63,KH,1717127007
269,atakpame,7.5333,1.1333,23.100000000000023,95,97,2.16,TG,1717127008
270,lihue,21.9789,-159.3672,28.58000000000004,71,20,7.72,US,1717126769
271,correntina,-13.3433,-44.6367,19.340000000000032,51,0,0.65,BR,1717127008
272,paros,37.0833,25.15,21.28000000000003,92,20,3.09,GR,1717127008
273,holualoa,19.6228,-155.9522,25.910000000000025,85,100,5.66,US,1717127008
274,vilyuchinsk,52.9306,158.4028,12.150000000000034,75,99,2.68,RU,1717127008
275,banda aceh,5.5577,95.3222,28.74000000000001,73,100,7.54,ID,1717127008
276,anshun,26.25,105.9333,21.57000000000005,55,25,4.98,CN,1717127009
277,santa ana,33.7456,-117.8678,21.470000000000027,82,20,4.12,US,1717126936
278,koungou,-12.7336,45.2042,26.840000000000032,78,20,5.66,YT,1717127009
279,linqiong,30.4159,103.4609,27.900000000000034,45,72,2.17,CN,1717127009
280,kristiansund,63.1115,7.732,14.03000000000003,87,100,3.6,NO,1717127009
281,saint-francois,46.4154,3.9054,10.79000000000002,94,100,4.63,FR,1717127009
282,keflavik,64.0049,-22.5624,7.9500000000000455,100,100,9.77,IS,1717127009
283,taro,-8.3862,115.28,26.0,69,94,1.53,ID,1717127009
284,drohobych,49.3499,23.5056,13.0,90,47,1.7,UA,1717127009
285,chui,-33.6971,-53.4616,13.050000000000011,79,100,1.05,UY,1717127010
286,hoi an,15.8794,108.335,26.980000000000018,59,100,4.51,VN,1717127010
287,leava,-14.3,-178.1667,27.0,81,91,12.63,WF,1717127010
288,suva,-18.1416,178.4415,21.710000000000036,100,75,3.6,FJ,1717127010
289,chibougamau,49.9168,-74.3659,11.79000000000002,47,100,2.06,CA,1717127010
290,buckhannon,38.994,-80.232,11.490000000000009,68,0,0.0,US,1717127010
291,hadibu,12.65,54.0333,28.920000000000016,77,66,5.45,YE,1717127010
292,selfoss,63.9331,-20.9971,7.25,91,100,7.68,IS,1717127011
293,bardai,11.65,7.2333,24.689999999999998,66,66,2.9,NG,1717127011
294,whitehorse,60.7161,-135.0538,16.430000000000007,28,20,5.66,CA,1717127011
295,n'zeto,-7.2312,12.8666,24.450000000000045,85,96,4.03,AO,1717127011
296,puerto santa,-8.9906,-78.6456,17.350000000000023,92,3,4.38,PE,1717127011
297,murray bridge,-35.1167,139.2667,11.850000000000023,49,40,6.67,AU,1717127011
298,port lincoln,-34.7333,135.8667,14.620000000000005,65,93,6.33,AU,1717127011
299,mahajanga,-15.7167,46.3167,24.010000000000048,60,20,3.09,MG,1717127011
300,urucara,-2.5364,-57.76,23.29000000000002,99,100,0.73,BR,1717127012
301,natal,-5.795,-35.2094,24.360000000000014,88,75,1.54,BR,1717127000
302,tofol,5.3248,163.0078,30.879999999999995,70,100,2.57,FM,1717127012
303,saint-joseph,-21.3667,55.6167,22.210000000000036,82,58,6.98,RE,1717127012
304,vila velha,-20.3297,-40.2925,21.970000000000027,68,40,2.57,BR,1717126826
305,valdivia,-39.8142,-73.2459,7.050000000000011,95,100,0.5,CL,1717127012
306,fale old settlement,-9.3852,-171.2468,29.150000000000034,76,28,5.04,TK,1717127012
307,laojunmiao,39.8333,97.7333,20.55000000000001,9,11,5.65,CN,1717127012
308,harstad,68.799,16.5293,12.670000000000016,85,68,0.89,NO,1717127012
309,depok,-6.4,106.8186,34.620000000000005,71,40,1.54,ID,1717127013
310,weihai,37.5017,122.1136,16.939999999999998,86,7,6.69,CN,1717127013
311,karratha,-20.7377,116.8463,25.77000000000004,50,0,8.38,AU,1717127013
312,diapaga,12.0708,1.7889,27.720000000000027,66,31,3.47,BF,1717127013
313,xining,36.6167,101.7667,16.04000000000002,37,98,2.18,CN,1717126962
314,la'ie,21.6477,-157.9253,27.980000000000018,76,87,4.47,US,1717127013
315,pinhao,-25.6956,-51.6597,6.439999999999998,89,0,1.64,BR,1717127013
316,kayangel,8.0823,134.7173,29.28000000000003,77,64,5.8,PW,1717127014
317,nova sintra,14.8667,-24.7167,23.910000000000025,76,4,7.19,CV,1717127014
318,kratie,12.4881,106.0188,27.82000000000005,84,100,2.26,KH,1717127014
319,hammerfest,70.6634,23.6821,11.25,82,69,1.03,NO,1717126890
320,puerto aysen,-45.4,-72.7,3.5300000000000296,99,100,0.72,CL,1717127014
321,wodonga,-36.1167,146.8833,16.82000000000005,100,24,4.82,AU,1717127014
322,port hedland,-20.3167,118.5667,27.03000000000003,36,0,8.23,AU,1717127014
323,samraong,12.4526,105.5873,26.260000000000048,95,100,0.96,KH,1717127014
324,sulecin,52.4443,15.1168,14.060000000000002,94,80,1.61,PL,1717126967
325,wad medani,14.4012,33.5199,31.33000000000004,45,33,2.46,SD,1717127015
326,walvis bay,-22.9575,14.5053,13.939999999999998,93,0,0.0,NA,1717127015
327,kismayo,-0.3582,42.5454,26.129999999999995,83,92,6.46,SO,1717127015
328,saynshand,44.8824,110.1163,18.710000000000036,28,0,2.54,MN,1717127015
329,port douglas,-16.4833,145.4667,24.879999999999995,79,45,3.65,AU,1717127015
330,hinton,53.4001,-117.5857,7.330000000000041,45,39,4.37,CA,1717127015
331,pimentel,-6.8367,-79.9342,17.160000000000025,88,40,7.72,PE,1717127015
332,boende,-0.2167,20.8667,22.110000000000014,90,50,1.18,CD,1717127016
333,boda,4.3189,17.4695,20.980000000000018,96,96,1.12,CF,1717127016
334,salalah,17.0151,54.0924,30.05000000000001,79,0,2.57,OM,1717127016
335,kampene,-3.6,26.6667,20.53000000000003,94,92,1.05,CD,1717127016
336,manavalakurichi,8.1333,77.3,29.49000000000001,78,81,7.82,IN,1717127016
337,rongelap,11.1635,166.8941,28.27000000000004,76,71,4.09,MH,1717127016
338,norilsk,69.3535,88.2027,-1.9899999999999523,75,98,8.12,RU,1717127016
339,volodarskiy,46.4013,48.5409,23.970000000000027,27,98,6.8,RU,1717127017
340,vershino-darasunskiy,52.35,115.5167,20.610000000000014,22,20,3.02,RU,1717127017
341,armacao de buzios,-22.7469,-41.8817,17.03000000000003,81,73,6.6,BR,1717127006
342,ilek,51.5271,53.3831,22.439999999999998,48,1,2.12,RU,1717127017
343,egilsstadir,65.2653,-14.3948,2.9500000000000455,75,75,2.06,IS,1717127017
344,coutances,49.05,-1.4333,9.25,95,34,2.59,FR,1717127017
345,santana,-0.0583,-51.1817,26.100000000000023,94,0,1.03,BR,1717127017
346,yinchuan,38.4681,106.2731,24.730000000000018,21,100,3.23,CN,1717127018
347,rio grande,-32.035,-52.0986,8.860000000000014,85,18,0.62,BR,1717126925
348,port arthur,38.8,121.2667,22.120000000000005,64,26,10.28,CN,1717127018
349,omurtag,43.1,26.4167,14.400000000000034,86,53,2.07,BG,1717127018
350,ziro,27.6333,93.8333,13.410000000000025,98,95,0.66,IN,1717127018
351,yanam,16.7333,82.2167,37.05000000000001,48,16,2.67,IN,1717127018
352,tezu,27.9167,96.1667,24.99000000000001,88,100,1.87,IN,1717127018
353,buka,40.8108,69.1986,25.920000000000016,26,0,2.77,UZ,1717127019
354,ilanskiy,56.2358,96.065,16.920000000000016,56,98,2.37,RU,1717127019
355,pasighat,28.0667,95.3333,24.110000000000014,96,100,1.56,IN,1717127019
356,aasiaat,68.7098,-52.8699,-6.639999999999986,85,19,0.87,GL,1717127019
357,port moresby,-9.4431,147.1797,31.680000000000007,62,40,7.72,PG,1717127019
358,blacksburg,37.2296,-80.4139,13.890000000000043,75,40,0.0,US,1717126869
359,faya-largeau,17.9257,19.1043,30.970000000000027,26,2,10.03,TD,1717127019
360,boujniba,32.9005,-6.7746,22.75,27,84,2.9,MA,1717127019
361,goundam,16.4145,-3.6708,32.44,12,8,4.54,ML,1717127020
362,deneysville,-26.8908,28.0971,8.300000000000011,62,0,2.17,ZA,1717127020
363,toguchin,55.2353,84.3858,8.460000000000036,59,57,6.27,RU,1717127020
364,kalevala,65.2,31.1667,17.82000000000005,69,30,1.51,RU,1717127020
365,gwadar,25.1216,62.3254,32.48000000000002,59,3,0.95,PK,1717127020
366,pariaman,-0.619,100.12,30.03000000000003,73,100,2.28,ID,1717127020
367,jayapura,-2.5333,140.7,30.660000000000025,76,80,2.85,ID,1717127020
368,komatipoort,-25.4332,31.9548,15.03000000000003,44,0,1.87,ZA,1717127020
369,saskatoon,52.1168,-106.6345,10.990000000000009,76,100,6.71,CA,1717126919
370,hafar al-batin,28.4328,45.9708,32.32000000000005,12,0,2.57,SA,1717127021
371,badr hunayn,23.7829,38.7905,31.360000000000014,15,0,1.02,SA,1717127021
372,al 'aziziyah,32.9058,45.0616,33.58000000000004,19,0,8.75,IQ,1717127021
373,singkil,-7.9855,111.4161,31.54000000000002,60,77,2.42,ID,1717127021
374,nikolayevsk-on-amure,53.1406,140.73,20.120000000000005,33,11,1.34,RU,1717127021
375,pitimbu,-7.4706,-34.8086,24.33000000000004,82,7,3.97,BR,1717127021
376,mitha tiwana,32.2486,72.1108,40.24000000000001,6,0,2.35,PK,1717127021
377,salekhard,66.53,66.6019,-2.0,80,100,6.71,RU,1717127022
378,yaren,-0.5472,166.916,28.900000000000034,68,2,4.01,NR,1717127022
379,burao,9.5221,45.5336,23.689999999999998,60,73,10.16,SO,1717127022
380,corner brook,48.9667,-57.9484,9.090000000000032,89,73,0.66,CA,1717127022
381,kharkhorin,47.1975,102.8238,16.590000000000032,30,100,2.76,MN,1717127022
382,barcelos,41.5388,-8.6151,16.08000000000004,80,4,3.08,PT,1717127022
383,tarnogskiy gorodok,60.4997,43.5761,17.27000000000004,73,14,0.8,RU,1717127022
384,kenai,60.5544,-151.2583,14.050000000000011,47,100,9.77,US,1717127022
385,gorgoram,12.6398,10.7039,30.32000000000005,48,55,2.51,NG,1717127023
386,crucecita,-28.95,-58.9833,10.080000000000041,94,0,2.88,AR,1717127023
387,severnoye,56.3491,78.3619,4.430000000000007,55,33,2.68,RU,1717127023
388,kirando,-7.4167,30.6,22.05000000000001,72,79,3.05,TZ,1717127023
389,ixtapa,20.7,-105.2,26.57000000000005,83,0,2.06,MX,1717127023
390,mutuali,-14.8706,37.0044,14.680000000000007,87,0,1.02,MZ,1717127023
391,quellon,-43.1167,-73.6167,8.180000000000007,82,100,1.86,CL,1717127023
392,pong nam ron,12.9058,102.2623,29.200000000000045,73,99,3.81,TH,1717127023
393,saldanha,-33.0117,17.9442,5.03000000000003,75,62,1.06,ZA,1717127024
394,dawesville,30.9224,-84.0091,23.710000000000036,78,0,0.0,US,1717127024
395,mitsamiouli,-11.3847,43.2844,26.910000000000025,73,29,5.83,KM,1717127024
396,turpan,42.9333,89.1667,30.370000000000005,17,21,0.71,CN,1717127024
397,jaleshwar,26.6471,85.8008,35.700000000000045,51,1,7.08,NP,1717127024
398,ribas do rio pardo,-20.4431,-53.7592,13.350000000000023,56,0,1.7,BR,1717127024
399,hatillo,18.4863,-66.8254,27.400000000000034,83,78,1.93,PR,1717127025
400,qurayyat,31.3318,37.3428,16.100000000000023,59,0,3.09,SA,1717127025
401,punta del este,-34.9667,-54.95,8.060000000000002,100,100,1.03,UY,1717126903
402,tsumeb,-19.2333,17.7167,12.560000000000002,31,0,3.07,NA,1717127025
403,ngetkib,7.3645,134.5148,30.150000000000034,73,58,5.21,PW,1717127025
404,severo-yeniseyskiy,60.3725,93.0408,7.5400000000000205,43,53,2.24,RU,1717127025
405,muynoq,43.7683,59.0214,25.460000000000036,22,2,3.06,UZ,1717127025
406,jinchang,38.4953,102.1739,25.460000000000036,16,100,6.44,CN,1717127025
407,tucumcari,35.1717,-103.725,16.910000000000025,25,0,2.06,US,1717127025
408,gauripur,26.0835,89.9616,25.57000000000005,91,100,6.12,IN,1717127026
409,yelizovo,53.1873,158.3805,12.080000000000041,37,75,5.0,RU,1717127026
410,ponta grossa,-25.095,-50.1619,7.020000000000039,83,0,1.49,BR,1717127026
411,kutum,14.2,24.6667,24.77000000000004,17,26,0.69,SD,1717127026
412,awjilah,29.1081,21.2869,26.57000000000005,21,1,3.59,LY,1717127026
413,changji,44.0167,87.3167,24.439999999999998,25,0,1.0,CN,1717127026
414,tripoli,32.8752,13.1875,20.80000000000001,58,3,2.68,LY,1717127026
415,pen,18.75,73.0833,33.02000000000004,50,53,3.52,IN,1717127026
416,saudarkrokur,65.7461,-19.6394,6.340000000000032,72,92,9.24,IS,1717127027
417,marakkanam,12.2,79.95,31.189999999999998,52,10,1.51,IN,1717127027
418,mangrol,21.1167,70.1167,29.960000000000036,74,98,5.71,IN,1717127027
419,inderbor,48.55,51.7833,26.720000000000027,19,97,7.03,KZ,1717127027
420,san martin,-33.081,-68.4681,9.300000000000011,53,32,2.66,AR,1717126923
421,katsuura,35.1333,140.3,17.680000000000007,92,100,12.79,JP,1717126946
422,bandar lampung,-5.4254,105.258,30.980000000000018,62,59,1.91,ID,1717127027
423,ziar nad hronom,48.5918,18.8496,13.600000000000023,96,96,1.11,SK,1717127028
424,puerto ayacucho,5.6639,-67.6236,23.090000000000032,97,90,1.41,VE,1717127028
425,niamey,13.5137,2.1098,30.160000000000025,42,0,3.6,NE,1717127028
426,broome,42.2506,-75.833,8.720000000000027,93,3,0.45,US,1717127028
427,golfito,8.639,-83.166,22.83000000000004,95,100,0.26,CR,1717127028
428,yemel'yanovo,56.1681,92.6767,6.4500000000000455,100,75,4.0,RU,1717127028
429,embi,48.8264,58.1442,22.730000000000018,40,94,2.18,KZ,1717127029
430,doka,13.5167,35.7667,26.620000000000005,55,100,3.64,SD,1717127029
431,aral,40.5156,81.2636,22.840000000000032,31,100,1.79,CN,1717127029
432,mahina,-17.5065,-149.489,28.75,74,100,4.12,PF,1717127029
433,roha,18.4333,73.1167,33.920000000000016,43,51,3.23,IN,1717127029
434,russkaya polyana,49.417,31.9201,15.170000000000016,81,85,2.52,UA,1717127029
435,cedar city,37.6775,-113.0619,20.54000000000002,21,0,3.6,US,1717127029
436,mombaca,-5.7431,-39.6275,21.129999999999995,98,54,0.73,BR,1717126809
437,kendari,-3.945,122.4989,30.710000000000036,66,28,2.73,ID,1717127030
438,rayadrug,14.7,76.8667,30.670000000000016,52,1,6.65,IN,1717127030
439,greymouth,-42.4667,171.2,11.620000000000005,90,100,1.06,NZ,1717127030
440,jaguaribe,-5.8906,-38.6219,22.99000000000001,93,52,1.29,BR,1717127030
441,floro,61.5996,5.0328,14.04000000000002,94,100,2.06,NO,1717127030
442,soio,-6.1349,12.3689,24.379999999999995,87,100,2.6,AO,1717127030
443,arapgir,39.0412,38.4952,19.910000000000025,45,0,0.06,TR,1717127030
444,vanimo,-2.6741,141.3028,29.430000000000007,77,86,4.04,PG,1717127030
445,inhambane,-23.865,35.3833,20.170000000000016,90,0,3.48,MZ,1717127031
446,la ronge,55.1001,-105.2842,12.140000000000043,71,100,3.6,CA,1717127031
447,palikir - national government center,6.9248,158.1611,28.410000000000025,84,100,1.54,FM,1717127031
448,puerto deseado,-47.7503,-65.8938,5.1200000000000045,78,23,5.26,AR,1717127031
449,red bluff,40.1785,-122.2358,32.379999999999995,18,0,4.12,US,1717127031
450,fauske,67.2588,15.3918,11.54000000000002,71,82,1.64,NO,1717127031
451,badger,64.8,-147.5333,17.140000000000043,56,75,4.12,US,1717127031
452,veinticinco de mayo,-35.4323,-60.1727,7.210000000000036,96,97,0.45,AR,1717126989
453,nalut,30.3333,10.85,23.730000000000018,38,100,6.91,LY,1717127031
454,kiruna,67.8557,20.2251,12.510000000000048,71,21,1.03,SE,1717127032
455,saint-leu,-21.15,55.2833,22.480000000000018,77,43,3.42,RE,1717127032
456,dogonbadan,30.3586,50.7981,26.05000000000001,36,0,0.0,IR,1717127032
457,kanniyakumari,8.0833,77.5667,29.49000000000001,77,75,9.07,IN,1717127032
458,cidreira,-30.1811,-50.2056,13.730000000000018,80,4,0.4,BR,1717127032
459,hastings,50.8552,0.5729,13.220000000000027,83,87,6.85,GB,1717126784
460,port augusta,-32.5,137.7667,18.920000000000016,50,61,5.75,AU,1717127032
461,sinan,34.8262,126.1086,23.060000000000002,74,6,3.63,KR,1717127032
462,darnetal,49.4453,1.1514,12.980000000000018,89,100,4.63,FR,1717127033
463,taraz,42.9,71.3667,22.230000000000018,33,0,3.0,KZ,1717127033
464,bel ombre,-4.6167,55.4167,25.910000000000025,89,40,1.03,SC,1717127033
465,klaksvik,62.2266,-6.589,8.510000000000048,86,45,2.9,FO,1717127033
466,hancheng,32.5186,112.3522,32.34000000000003,32,86,2.89,CN,1717127033
467,aweil,8.7682,27.4002,25.83000000000004,59,91,1.86,SS,1717127033
468,mudgee,-32.5943,149.5871,14.79000000000002,97,100,4.7,AU,1717127033
469,kalmunai,7.4167,81.8167,31.340000000000032,64,100,0.33,LK,1717127033
470,porto novo,6.4965,2.6036,28.900000000000034,89,100,2.82,BJ,1717127034
471,richards bay,-28.783,32.0377,18.720000000000027,68,0,4.94,ZA,1717127034
472,byron bay,-28.65,153.6167,25.390000000000043,71,98,4.79,AU,1717127034
473,robinson,31.4677,-97.1147,22.07000000000005,94,75,3.6,US,1717127034
474,dakhla,23.6848,-15.958,19.140000000000043,82,0,3.83,EH,1717127034
475,pasvalys,56.0594,24.4036,15.650000000000034,91,99,2.47,LT,1717127034
476,tongouson,5.0214,120.1328,30.010000000000048,75,100,4.75,PH,1717127034
477,galveston,29.3669,-94.9669,26.08000000000004,78,78,1.34,US,1717127035
478,katsuren-haebaru,26.3369,127.8719,27.430000000000007,96,100,6.17,JP,1717127035
479,pointe-noire,-4.7761,11.8635,24.980000000000018,85,100,2.93,CG,1717127035
480,general villegas,-35.0328,-63.0125,8.620000000000005,86,97,3.21,AR,1717126970
481,florence,43.7667,11.25,18.470000000000027,89,20,2.06,IT,1717126976
482,maxixe,-23.8597,35.3472,19.49000000000001,92,0,3.15,MZ,1717127035
483,hami,42.8,93.45,27.74000000000001,10,52,3.54,CN,1717127035
484,al muwayh,22.4333,41.7583,29.53000000000003,9,38,3.68,SA,1717127035
485,as pontes de garcia rodriguez,43.4527,-7.8518,13.03000000000003,85,65,2.82,ES,1717127036
486,choele choel,-39.2667,-65.6833,10.800000000000011,59,100,4.34,AR,1717127036
487,labrador city,52.9463,-66.9114,-0.049999999999954525,93,100,0.0,CA,1717127036
488,ketchikan,55.3422,-131.6461,12.260000000000048,82,100,5.66,US,1717127036
489,khandyga,62.6667,135.6,27.99000000000001,23,15,2.79,RU,1717127036
490,chillicothe,39.3331,-82.9824,13.689999999999998,87,0,0.0,US,1717126935
491,kapuskasing,49.4169,-82.4331,14.050000000000011,71,40,2.06,CA,1717126862
492,pandan,14.0453,124.1694,32.43000000000001,63,85,1.72,PH,1717127036
493,kiunga,-6.1219,141.2906,30.640000000000043,67,83,1.42,PG,1717127036
494,tuam,53.5167,-8.85,8.460000000000036,96,11,2.77,IE,1717127037
495,island harbour,50.724,-1.2758,13.330000000000041,73,52,2.24,GB,1717127037
496,dawei,14.0833,98.2,30.02000000000004,76,100,3.19,MM,1717127037
497,al ghayzah,16.2079,52.176,29.370000000000005,76,100,1.64,YE,1717127037
498,oruro,-17.9833,-67.15,5.8799999999999955,19,0,0.96,BO,1717127037
499,pasian di prato,46.0486,13.1875,15.78000000000003,91,75,3.09,IT,1717127037
500,tocache,-8.1842,-76.5125,22.77000000000004,82,84,0.45,PE,1717127037
501,ivancna gorica,45.9383,14.8044,15.5,100,100,1.26,SI,1717127037
502,dunedin,-45.8742,170.5036,14.890000000000043,66,100,2.12,NZ,1717127037
503,nuku'alofa,-21.1333,-175.2,23.189999999999998,64,75,6.17,TO,1717127038
504,argo,37.6333,22.7333,18.129999999999995,60,12,1.42,GR,1717127038
505,kastsyukovichy,53.3516,32.0506,14.730000000000018,88,99,2.87,BY,1717127038
506,puerto lempira,15.2667,-83.7667,25.420000000000016,85,100,1.53,HN,1717127038
507,vilyuysk,63.7553,121.6247,21.110000000000014,56,68,4.47,RU,1717127038
508,kashmar,35.2383,58.4656,24.55000000000001,20,0,3.41,IR,1717127038
509,boguchany,58.3814,97.4531,8.810000000000002,53,100,3.13,RU,1717127038
510,nelson bay,-32.7167,152.15,18.03000000000003,60,100,2.97,AU,1717127038
511,harrisburg,40.2737,-76.8844,15.29000000000002,82,20,2.06,US,1717126908
512,tura,25.5198,90.2201,28.77000000000004,85,85,2.88,IN,1717127039
513,belebey,54.1167,54.1167,15.680000000000007,78,99,0.98,RU,1717127039
514,serhiyivka,46.0272,30.3768,18.05000000000001,82,4,5.01,UA,1717127039
515,great falls,47.5002,-111.3008,14.25,33,20,4.63,US,1717127039
516,tepelene,40.2958,20.0192,15.110000000000014,84,99,3.21,AL,1717127039
517,barra do garcas,-15.89,-52.2567,17.910000000000025,58,0,1.49,BR,1717127039
518,mount isa,-20.7333,139.5,17.870000000000005,94,75,5.14,AU,1717127039
519,adam,22.3756,57.5233,35.5,29,1,0.47,OM,1717127040
520,greenville,35.6127,-77.3663,17.010000000000048,90,0,0.0,US,1717126832
521,antofagasta,-23.65,-70.4,15.600000000000023,84,52,0.73,CL,1717126779
522,sabratah,32.7933,12.4885,21.410000000000025,49,1,2.59,LY,1717127040
523,bangassou,4.7413,22.8184,20.110000000000014,85,66,0.57,CF,1717127040
524,adrar,20.5022,-10.0711,25.920000000000016,23,1,3.76,MR,1717127040
525,moramanga,-18.9333,48.2,14.390000000000043,92,78,1.93,MG,1717127040
526,leitchfield,37.48,-86.2939,16.760000000000048,89,9,3.1,US,1717127040
527,ciudad bolivar,8.1222,-63.5497,26.410000000000025,85,90,0.92,VE,1717127041
528,sabzevar,36.2126,57.6819,22.600000000000023,28,0,5.14,IR,1717127041
529,labuan,5.2767,115.2417,31.200000000000045,74,20,1.54,MY,1717127041
530,san juan de miraflores,-12.1629,-76.9635,17.32000000000005,87,66,3.59,PE,1717127041
531,piti village,13.4626,144.6933,31.03000000000003,74,100,6.17,GU,1717127041
532,undurkhaan,47.3194,110.6556,18.480000000000018,33,85,2.08,MN,1717127041
533,san felipe,10.3399,-68.7425,22.860000000000014,98,100,1.43,VE,1717127041
534,dengzhou,37.8086,120.7508,17.160000000000025,75,36,9.49,CN,1717127041
535,luza,60.6308,47.2512,15.350000000000023,69,41,1.79,RU,1717127042
536,alenquer,-1.9417,-54.7383,24.170000000000016,96,100,1.17,BR,1717127042
537,kalispell,48.1958,-114.3129,12.020000000000039,65,75,4.12,US,1717127042
538,ayr,55.4627,-4.6339,9.170000000000016,93,20,1.54,GB,1717127042
539,petrovsk-zabaykal'skiy,51.273,108.843,19.730000000000018,42,51,3.26,RU,1717127042
540,belmonte,-15.8631,-38.8828,22.0,93,19,3.86,BR,1717127042
541,akureyri,65.6835,-18.0878,6.960000000000036,65,0,4.12,IS,1717127043
542,serenje,-13.2325,30.2352,9.890000000000043,69,5,1.93,ZM,1717127043
543,nueva esperanza,15.2667,-87.6,24.79000000000002,93,71,1.2,HN,1717127043
544,canutama,-6.5339,-64.3831,24.110000000000014,74,99,1.11,BR,1717127043
545,mokhsogollokh,61.4681,128.9203,24.57000000000005,31,9,3.39,RU,1717127043
546,al kharijah,25.4514,30.5464,25.5,26,0,4.56,EG,1717127043
547,alappuzha,9.49,76.3264,28.890000000000043,85,100,5.47,IN,1717126925
548,gustavia,17.8962,-62.8498,28.77000000000004,82,91,4.47,BL,1717127043
549,lazaro cardenas,17.9583,-102.2,26.890000000000043,81,3,2.37,MX,1717127044
550,vondrozo,-22.8167,47.2833,13.650000000000034,90,1,1.6,MG,1717127044
551,nchelenge,-9.3451,28.734,16.850000000000023,73,94,1.89,ZM,1717127044
552,kirakira,-10.4544,161.9205,27.460000000000036,87,99,5.52,SB,1717127044
553,zhezqazghan,47.7833,67.7667,19.32000000000005,55,40,3.0,KZ,1717127044
554,minas de marcona,-15.2119,-75.1103,12.32000000000005,82,16,1.98,PE,1717127044
555,betio village,1.358,172.9211,31.02000000000004,71,10,5.52,KI,1717127044
556,sarandi del yi,-33.35,-55.6333,9.020000000000039,87,29,2.38,UY,1717127045
557,paragominas,-2.9667,-47.4833,22.710000000000036,97,75,1.49,BR,1717127045
558,sidney,-33.8679,151.2073,21.860000000000014,65,0,7.2,AU,1717126806
559,thurles,52.6819,-7.8022,4.260000000000048,96,10,2.29,IE,1717126765
560,birzebbuga,35.8258,14.5269,20.08000000000004,88,0,2.06,MT,1717127045
